[
    {
        "url": "https://irs3.4sqi.net/img/general/300x300/ejU9uepCh9CqzQ2PtQ0WSPQJkaauCLQDPkUlHuHFY-c.jpg",
        "title": "Sushi Ran",
        "width": 300,
        "height": 300,
        "latitude": 37.858815,
        "longitude": -122.4859201,
        "category": "Japanese",
        "rating": 9.3,
        "price": 3
    },
    {
        "url": "https://irs1.4sqi.net/img/general/300x300/6044466_yfUcI6CRQwPynm9aRpUmvw0yJEPDugfQ_a57OqvQj6k.jpg",
        "title": "Sol Food Puerto Rican Cuisine",
        "width": 300,
        "height": 300,
        "latitude": 37.89784524131662,
        "longitude": -122.53545381017167,
        "category": "Caribbean",
        "rating": 9.1,
        "price": 2
    },
    {
        "url": "https://irs3.4sqi.net/img/general/300x300/5AnJY6uKDmK7l95Sv__16ckJHob8i2VKle_t9DQ6EqE.jpg",
        "title": "Pizzetta 211",
        "width": 300,
        "height": 300,
        "latitude": 37.783749,
        "longitude": -122.48286803,
        "category": "Pizza",
        "rating": 9.4,
        "price": 2
    },
    {
        "url": "https://irs1.4sqi.net/img/general/300x300/J00J0V33VWYILWDAPHIMQIWQTC44MGTOD2K3PSNOHB0WIPDY.jpg",
        "title": "Burma Superstar",
        "width": 300,
        "height": 300,
        "latitude": 37.78303039321439,
        "longitude": -122.46254427645594,
        "category": "Asian",
        "rating": 9.5,
        "price": 2
    },
    {
        "url": "https://irs1.4sqi.net/img/general/300x300/16074492_0lOP8SjrtJVM9Hl9jezRuF3aACym615ZQLJvl-o-aMI.jpg",
        "title": "Blue Barn Gourmet",
        "width": 300,
        "height": 300,
        "latitude": 37.800587,
        "longitude": -122.438143,
        "category": "Sandwiches",
        "rating": 9.2,
        "price": 2
    },
    {
        "url": "https://irs1.4sqi.net/img/general/300x300/51EFRXPBNZEABIDM5WFN2KB1Z1PPSAQN3FAD4IKQDVRS3CKV.jpg",
        "title": "Delarosa",
        "width": 300,
        "height": 300,
        "latitude": 37.80038757348147,
        "longitude": -122.43912372919308,
        "category": "Pizza",
        "rating": 9.2,
        "price": 2
    },
    {
        "url": "https://irs2.4sqi.net/img/general/300x300/47286487_YuVDBr2BcmGbGmu0fM7whCugO2yo4kB_QY1irs5_dGc.jpg",
        "title": "Spruce",
        "width": 300,
        "height": 300,
        "latitude": 37.78762478684106,
        "longitude": -122.45273106354212,
        "category": "American",
        "rating": 9.3,
        "price": 3
    },
    {
        "url": "https://irs0.4sqi.net/img/general/300x300/P4VcU0IXPKroW0PBgMzOiFwitPQIuXoaPHR_szC-iu0.jpg",
        "title": "Pizzeria Delfina",
        "width": 300,
        "height": 300,
        "latitude": 37.788911608086934,
        "longitude": -122.43427420327322,
        "category": "Pizza",
        "rating": 9.4,
        "price": 2
    },
    {
        "url": "https://irs0.4sqi.net/img/general/300x300/232274_tyuZgnqxa6ncHEbEPOYOiAr8y1-NL-Nlyft1LNPVlRg.jpg",
        "title": "Halu",
        "width": 300,
        "height": 300,
        "latitude": 37.782464475101214,
        "longitude": -122.46648036006773,
        "category": "Japanese",
        "rating": 9.3,
        "price": 2
    },
    {
        "url": "https://irs0.4sqi.net/img/general/300x300/2153135_ZtJJsJT50mso9I4sytQOUooHhJZ4DXuTH2h4pvMgqck.jpg",
        "title": "The Sandwich Spot",
        "width": 300,
        "height": 300,
        "latitude": 37.7997765,
        "longitude": -122.439406,
        "category": "Sandwiches",
        "rating": 9.2,
        "price": 1
    },
    {
        "url": "https://irs0.4sqi.net/img/general/300x300/EARq0MWnRQKW0qRDzmpMQ6aTIZOh6KvjjbRJcsvNjM8.jpg",
        "title": "Atelier Crenn",
        "width": 300,
        "height": 300,
        "latitude": 37.798373944122254,
        "longitude": -122.4357283115387,
        "category": "French",
        "rating": 9.2,
        "price": 4
    },
    {
        "url": "https://irs0.4sqi.net/img/general/300x300/EqNtvFRuT7BoZoIJ74ajHsoFGey4-8vuUUnL0BQT89c.jpg",
        "title": "Lou's Cafe",
        "width": 300,
        "height": 300,
        "latitude": 37.78062,
        "longitude": -122.473277,
        "category": "Café",
        "rating": 9.3,
        "price": 1
    },
    {
        "url": "https://irs3.4sqi.net/img/general/300x300/YE332XNOVCD2IZE4GRJJKWYEWOQ4PCICZCNSJMTAUHIB2XOX.jpg",
        "title": "Roam Artisan Burgers",
        "width": 300,
        "height": 300,
        "latitude": 37.797784746473134,
        "longitude": -122.4284702539444,
        "category": "Burgers",
        "rating": 9.2,
        "price": 2
    },
    {
        "url": "https://irs2.4sqi.net/img/general/300x300/1399367_i1JVr3MTye3TBRG19Jv8KrDfsXKbTZHJhm-IVEM8E4Q.jpg",
        "title": "Tony’s Pizza Napoletana",
        "width": 300,
        "height": 300,
        "latitude": 37.80032801203867,
        "longitude": -122.40904033184052,
        "category": "Pizza",
        "rating": 9.4,
        "price": 2
    },
    {
        "url": "https://irs0.4sqi.net/img/general/300x300/44047_aGLxe5LDUNTNatGRJ1QH27IdBYhMP4gHbDLcU7JrP_A.jpg",
        "title": "Wako",
        "width": 300,
        "height": 300,
        "latitude": 37.783011,
        "longitude": -122.46158,
        "category": "Japanese",
        "rating": 9.2,
        "price": 1
    },
    {
        "url": "https://irs0.4sqi.net/img/general/300x300/100677_hh-XsEBJeb1rNo7c-r_qiyBpE5DswKvO5LrCSNGBMVc.jpg",
        "title": "Stones Throw",
        "width": 300,
        "height": 300,
        "latitude": 37.79806874880436,
        "longitude": -122.41880893707274,
        "category": "American",
        "rating": 9.3,
        "price": 3
    },
    {
        "url": "https://irs2.4sqi.net/img/general/300x300/MD6Bu6576cudf7e9R-Zc8T89pmb6czMC7nPXcd2l2g0.jpg",
        "title": "B★Star Cafe",
        "width": 300,
        "height": 300,
        "latitude": 37.7830453375903,
        "longitude": -122.46071991779453,
        "category": "Asian",
        "rating": 9.2,
        "price": 2
    },
    {
        "url": "https://irs0.4sqi.net/img/general/300x300/38513_Gy7BNj5ozNrrs1dbTsaU6x4GhTI-V04Zn3vBHOnhceM.jpg",
        "title": "Bar Crudo",
        "width": 300,
        "height": 300,
        "latitude": 37.775710796220146,
        "longitude": -122.438067580171,
        "category": "Seafood",
        "rating": 9.6,
        "price": 3
    },
    {
        "url": "https://irs0.4sqi.net/img/general/300x300/2371535_paTp6PyJE_jtMiZLDOd-zPWefHhBh7EI4f-5PX8QBgE.jpg",
        "title": "Roam Artisan Burgers",
        "width": 300,
        "height": 300,
        "latitude": 37.7877054274904,
        "longitude": -122.43362721421329,
        "category": "Burgers",
        "rating": 9.3,
        "price": 2
    },
    {
        "url": "https://irs1.4sqi.net/img/general/300x300/1775_NMLbaT3GhF4dSGbo0zG93DWjT6vcKOBf45WYWF6U4Uc.jpg",
        "title": "State Bird Provisions",
        "width": 300,
        "height": 300,
        "latitude": 37.78387653509928,
        "longitude": -122.4329138626742,
        "category": "New American",
        "rating": 9.4,
        "price": 3
    },
    {
        "url": "https://irs2.4sqi.net/img/general/300x300/24996278_da-rl9r0EtUFLnAqBB1Ex7MPhA7nSkaauAWWN9_XQbQ.jpg",
        "title": "Out The Door",
        "width": 300,
        "height": 300,
        "latitude": 37.787004,
        "longitude": -122.434077,
        "category": "Vietnamese",
        "rating": 9.3,
        "price": 3
    },
    {
        "url": "https://irs2.4sqi.net/img/general/300x300/39497_acEDc71tZXj8uZB8T4JpDTVL83dfCCmBxMWdYONxJfM.jpg",
        "title": "Kokkari Estiatorio",
        "width": 300,
        "height": 300,
        "latitude": 37.79693592834394,
        "longitude": -122.39975702239228,
        "category": "Greek",
        "rating": 9.5,
        "price": 3
    },
    {
        "url": "https://irs1.4sqi.net/img/general/300x300/9576094_rpd1PXlzqLO0NkQruxs5jWNMKD_xfSpnMUpwD49RUPI.jpg",
        "title": "Liholiho Yacht Club",
        "width": 300,
        "height": 300,
        "latitude": 37.78836869881094,
        "longitude": -122.4145862541547,
        "category": "Hawaiian",
        "rating": 9.4,
        "price": 3
    },
    {
        "url": "https://irs3.4sqi.net/img/general/300x300/121604_leDtZyHlit191I1XnMNZxd4pl7hv2vvEONTO_ebwf0A.jpg",
        "title": "The Progress",
        "width": 300,
        "height": 300,
        "latitude": 37.783767708708424,
        "longitude": -122.43281432486435,
        "category": "American",
        "rating": 9.3,
        "price": 3
    },
    {
        "url": "https://irs3.4sqi.net/img/general/300x300/15527619_eKJvKCABIwidbvo-AymoGWrQBkrAhmMdnZp6i44QjV4.jpg",
        "title": "Molinari Delicatessen",
        "width": 300,
        "height": 300,
        "latitude": 37.79846719799567,
        "longitude": -122.40785747766493,
        "category": "Deli / Bodega",
        "rating": 9.3,
        "price": 2
    },
    {
        "url": "https://irs3.4sqi.net/img/general/300x300/2952483_tlFp9TPdTrNtf_JgDG5Qa9SbHOmQ4NMrf9WLIqY3QeY.jpg",
        "title": "House of Prime Rib",
        "width": 300,
        "height": 300,
        "latitude": 37.79340428203235,
        "longitude": -122.42279370202185,
        "category": "Steakhouse",
        "rating": 9.2,
        "price": 4
    },
    {
        "url": "https://irs1.4sqi.net/img/general/300x300/7866497_dRWRRhIF5zkSCY3sZFlbYexdO_Cex6FaoGiu2vdY0bo.jpg",
        "title": "Nopa",
        "width": 300,
        "height": 300,
        "latitude": 37.77494821103535,
        "longitude": -122.43765838868448,
        "category": "New American",
        "rating": 9.4,
        "price": 3
    },
    {
        "url": "https://irs1.4sqi.net/img/general/300x300/264553_vDtyfj7e-rX0gi2QfVFIW_qC8QMDwAkKFGOKPciZdds.jpg",
        "title": "Señor Sisig",
        "width": 300,
        "height": 300,
        "latitude": 37.79202500048633,
        "longitude": -122.40942032133995,
        "category": "Food Truck",
        "rating": 9.4,
        "price": 1
    },
    {
        "url": "https://irs1.4sqi.net/img/general/300x300/1DVOISI0BRFF1OA0WBDUW5CS2JVW3GRVVYKZ2ZEKQOBQONUX.jpg",
        "title": "Schubert's Bakery",
        "width": 300,
        "height": 300,
        "latitude": 37.78284653984104,
        "longitude": -122.46491036695227,
        "category": "Bakery",
        "rating": 9.1,
        "price": 2
    },
    {
        "url": "https://irs2.4sqi.net/img/general/300x300/714904_rsofak-v5LF6okyURef9GOaw0lJEkYrDz6uWTDDYyug.jpg",
        "title": "Gary Danko",
        "width": 300,
        "height": 300,
        "latitude": 37.80564739271261,
        "longitude": -122.42039680480957,
        "category": "New American",
        "rating": 9.1,
        "price": 4
    },
    {
        "url": "https://irs1.4sqi.net/img/general/300x300/zo14uQMh053hMVIJi_GiF8LfEsMJsmqV4W7ahiUaWsc.jpg",
        "title": "Cotogna",
        "width": 300,
        "height": 300,
        "latitude": 37.79725903551043,
        "longitude": -122.40366780615335,
        "category": "Italian",
        "rating": 9.4,
        "price": 3
    },
    {
        "url": "https://irs1.4sqi.net/img/general/300x300/518450_qh9m4mgQKIQ7yf_kFlh5C-VnYsyAofvGdB_nyEFQkBA.jpg",
        "title": "Sotto Mare Oysteria and Seafood Restaurant",
        "width": 300,
        "height": 300,
        "latitude": 37.79962637173838,
        "longitude": -122.40833068637853,
        "category": "Seafood",
        "rating": 9.3,
        "price": 2
    },
    {
        "url": "https://irs0.4sqi.net/img/general/300x300/19202635_4gBrEjdhlZlvgn0Qq4KctRTN8_nQBBvnONSE5H9etw4.jpg",
        "title": "Big 4 Restaurant",
        "width": 300,
        "height": 300,
        "latitude": 37.79151647714289,
        "longitude": -122.41244026579335,
        "category": "American",
        "rating": 9.3,
        "price": 4
    },
    {
        "url": "https://irs0.4sqi.net/img/general/300x300/D4NKBXZPROXQGRJOK1BK5JQSSPEMD4O4NDTFYSZIZMYILRSK.jpg",
        "title": "Park Tavern",
        "width": 300,
        "height": 300,
        "latitude": 37.80113445447079,
        "longitude": -122.40936501019276,
        "category": "New American",
        "rating": 9.2,
        "price": 3
    },
    {
        "url": "https://irs0.4sqi.net/img/general/300x300/4569100_Mb2EaUtTjR_54yfTHRaKQAiXdK088ELAa2QAZxt19dg.jpg",
        "title": "The House",
        "width": 300,
        "height": 300,
        "latitude": 37.79841498862271,
        "longitude": -122.4072078527489,
        "category": "Asian",
        "rating": 9.3,
        "price": 3
    },
    {
        "url": "https://irs3.4sqi.net/img/general/300x300/38397_eEiEcmyxfuGMTn0BeBtNDudLinGLXVLe_PzHoiiOnvQ.jpg",
        "title": "Little Star Pizza",
        "width": 300,
        "height": 300,
        "latitude": 37.77753826846818,
        "longitude": -122.43828323450084,
        "category": "Pizza",
        "rating": 9.3,
        "price": 2
    },
    {
        "url": "https://irs2.4sqi.net/img/general/300x300/-3eFKz3Ao58ftG1wfazZlW-MmnQ7UPPtdjcIEDLs3RA.jpg",
        "title": "Hog Island Oyster Co.",
        "width": 300,
        "height": 300,
        "latitude": 37.7960679927155,
        "longitude": -122.39360690116882,
        "category": "Seafood",
        "rating": 9.5,
        "price": 2
    },
    {
        "url": "https://irs1.4sqi.net/img/general/300x300/3464309_WtZn3ousdZ-ARDyH9fPy1f5MGMh7gJFI2uBOK-wOVN4.jpg",
        "title": "Lers Ros Thai",
        "width": 300,
        "height": 300,
        "latitude": 37.78467064048952,
        "longitude": -122.41775537844298,
        "category": "Thai",
        "rating": 9.3,
        "price": 2
    },
    {
        "url": "https://irs2.4sqi.net/img/general/300x300/5728030_EKX7Gna2oY8KMXHDqPkr5Byd28FwZeiYf9vvrrM-Btw.jpg",
        "title": "Flour & Co",
        "width": 300,
        "height": 300,
        "latitude": 37.790540198487236,
        "longitude": -122.4171996116638,
        "category": "Bakery",
        "rating": 9.2,
        "price": 2
    },
    {
        "url": "https://irs0.4sqi.net/img/general/300x300/40171900_4z1b1fNct-ohcA3aKp_yO7Te2Wt1ex0hkc4aCwpsSrQ.jpg",
        "title": "Golden Boy Pizza",
        "width": 300,
        "height": 300,
        "latitude": 37.799594749418844,
        "longitude": -122.40812603286692,
        "category": "Pizza",
        "rating": 9.2,
        "price": 1
    },
    {
        "url": "https://irs2.4sqi.net/img/general/300x300/AWUEOQCCOLVD2GH4Z4MTUEYO32FXOOSBRBDL3JTNP5JUOPNH.jpg",
        "title": "Fatted Calf",
        "width": 300,
        "height": 300,
        "latitude": 37.77593631729908,
        "longitude": -122.4232084818848,
        "category": "Deli / Bodega",
        "rating": 9.4,
        "price": 3
    },
    {
        "url": "https://irs1.4sqi.net/img/general/300x300/JtripI10cfPhPandpWcesZMZR0STyPvELJV4xqyCH_o.jpg",
        "title": "Jane",
        "width": 300,
        "height": 300,
        "latitude": 37.78930232286027,
        "longitude": -122.43397951126099,
        "category": "Café",
        "rating": 9.1,
        "price": 2
    },
    {
        "url": "https://irs1.4sqi.net/img/general/300x300/5726891_UG5Ti0Xk7ICmQHrte4ScZDNbIzW3c6mcdbZySKNPsQc.jpg",
        "title": "Ebisu",
        "width": 300,
        "height": 300,
        "latitude": 37.764490389096174,
        "longitude": -122.46636426983471,
        "category": "Sushi",
        "rating": 9.3,
        "price": 3
    },
    {
        "url": "https://irs1.4sqi.net/img/general/300x300/1114337_C90uxpjx3Qg5i0x7vGaxtHBk2KrH_EbpXpXq47yMlEo.jpg",
        "title": "Kusakabe",
        "width": 300,
        "height": 300,
        "latitude": 37.795675889038506,
        "longitude": -122.40292489528656,
        "category": "Sushi",
        "rating": 9.3,
        "price": 4
    },
    {
        "url": "https://irs1.4sqi.net/img/general/300x300/125653_Rs7OEq39IFlZw0ZXByY4iRWYacCAeRMXExdqrjJ15No.jpg",
        "title": "Nopalito",
        "width": 300,
        "height": 300,
        "latitude": 37.773470000054516,
        "longitude": -122.43910714054726,
        "category": "Mexican",
        "rating": 9.2,
        "price": 2
    },
    {
        "url": "https://irs3.4sqi.net/img/general/300x300/koSqOmZjq6cmEoGV97ncuez6XYjyok4hI9UVjBkEuzI.jpg",
        "title": "L'Ardoise",
        "width": 300,
        "height": 300,
        "latitude": 37.76659295311283,
        "longitude": -122.43327140808105,
        "category": "French",
        "rating": 9.4,
        "price": 3
    },
    {
        "url": "https://irs0.4sqi.net/img/general/300x300/yqpYIw4rskSJiJV7mcjPqL-uIez4KoMrHqvSSIlTIsw.jpg",
        "title": "Deli Board",
        "width": 300,
        "height": 300,
        "latitude": 37.777485367788515,
        "longitude": -122.4070253220108,
        "category": "Sandwiches",
        "rating": 9.5,
        "price": 2
    },
    {
        "url": "https://irs1.4sqi.net/img/general/300x300/26698_T9CqJFLKBCNktowSLBIetMP599XuhwlmH5_DQSCh-F8.jpg",
        "title": "New Eritrea Restaurant & Bar",
        "width": 300,
        "height": 300,
        "latitude": 37.763849,
        "longitude": -122.46769059,
        "category": "Ethiopian",
        "rating": 9.3,
        "price": 2
    },
    {
        "url": "https://irs0.4sqi.net/img/general/300x300/2371535_KHZPh_eMeoeZ3lkH8fvVxGogUTRoqh04MtkGcLDjoz4.jpg",
        "title": "Vive La Tarte",
        "width": 300,
        "height": 300,
        "latitude": 37.777089059825975,
        "longitude": -122.4109966767992,
        "category": "Bakery",
        "rating": 9.4,
        "price": 2
    },
    {
        "url": "https://irs0.4sqi.net/img/general/300x300/7j4Ve68XbYJWltzgW3UsB2H6Ifw6FPSFVrwmNGchFdk.jpg",
        "title": "Slanted Door",
        "width": 300,
        "height": 300,
        "latitude": 37.79619516102866,
        "longitude": -122.3938000202179,
        "category": "Vietnamese",
        "rating": 9.3,
        "price": 3
    },
    {
        "url": "https://irs1.4sqi.net/img/general/300x300/10079656_kCEkazJPmzqX1ryODrOZXHo69XvCyfB-uHZrYL2W7I0.jpg",
        "title": "4505 Burgers & BBQ",
        "width": 300,
        "height": 300,
        "latitude": 37.77612089252893,
        "longitude": -122.4380565209626,
        "category": "BBQ",
        "rating": 9.2,
        "price": 2
    },
    {
        "url": "https://irs1.4sqi.net/img/general/300x300/8689427_1bhvgXX0g7HmbD0kQpqbx1ikXuPKWVmsYWTNMcaQFZA.jpg",
        "title": "Zazie",
        "width": 300,
        "height": 300,
        "latitude": 37.76524912923089,
        "longitude": -122.45002190184468,
        "category": "Breakfast",
        "rating": 9.3,
        "price": 2
    },
    {
        "url": "https://irs3.4sqi.net/img/general/300x300/57274678_xWEkYq4IsV5QRnTSHD8WA0_PiXFhjx93HihsP414-zk.jpg",
        "title": "Rosamunde Sausage Grill",
        "width": 300,
        "height": 300,
        "latitude": 37.77187235911512,
        "longitude": -122.43113100528716,
        "category": "Hot Dogs",
        "rating": 9.3,
        "price": 1
    },
    {
        "url": "https://irs3.4sqi.net/img/general/300x300/16088195_5dUJRHISguwuSUCifoYa5jy7JhquwT0sQSTm4yGybZo.jpg",
        "title": "Izakaya Sozai",
        "width": 300,
        "height": 300,
        "latitude": 37.763742,
        "longitude": -122.474044,
        "category": "Japanese",
        "rating": 9.3,
        "price": 2
    },
    {
        "url": "https://irs1.4sqi.net/img/general/300x300/3793351_6wuZ43jB2A67Nq7iRAdyRikoCmTE2vBj4GKVq-Sqm6Q.jpg",
        "title": "Brenda's French Soul Food",
        "width": 300,
        "height": 300,
        "latitude": 37.782897,
        "longitude": -122.41921781666667,
        "category": "Southern / Soul",
        "rating": 9.2,
        "price": 2
    },
    {
        "url": "https://irs0.4sqi.net/img/general/300x300/650293_FLjAhNUMxN5LO8O1ppMRkfqYpCN8QAatrJS9-IcUZwM.jpg",
        "title": "Primavera",
        "width": 300,
        "height": 300,
        "latitude": 37.795554554300026,
        "longitude": -122.39206225542767,
        "category": "Food Truck",
        "rating": 9.3,
        "price": 1
    },
    {
        "url": "https://irs1.4sqi.net/img/general/300x300/65515_3JuKqzPxdfRCBGndDg5YcD_PJfoVCrGgOTtD4788YpQ.jpg",
        "title": "Shizen",
        "width": 300,
        "height": 300,
        "latitude": 37.76821979542597,
        "longitude": -122.42152723069869,
        "category": "Sushi",
        "rating": 9.5,
        "price": 2
    },
    {
        "url": "https://irs0.4sqi.net/img/general/300x300/858784_1uEKqh2PfJhClpI6BmH1Pa05G34urFuysDwo9zDgtho.jpg",
        "title": "Suppenküche",
        "width": 300,
        "height": 300,
        "latitude": 37.77634577760317,
        "longitude": -122.42619037628175,
        "category": "German",
        "rating": 9.3,
        "price": 2
    },
    {
        "url": "https://irs2.4sqi.net/img/general/300x300/f8GuSsmL-gR8Kcko5BFL_N2hNOkhLDCP2MDZYisN7GE.jpg",
        "title": "Ryoko's Japanese Restaurant & Bar",
        "width": 300,
        "height": 300,
        "latitude": 37.788117565225306,
        "longitude": -122.41182079708322,
        "category": "Sushi",
        "rating": 9.2,
        "price": 2
    },
    {
        "url": "https://irs0.4sqi.net/img/general/300x300/mwBXvADUeI5ogpNwZaYU4-vcbnHWDcoXWEyitjWwpfw.jpg",
        "title": "Off the Grid: Upper Haight",
        "width": 300,
        "height": 300,
        "latitude": 37.76717654490528,
        "longitude": -122.45312360972783,
        "category": "Food Truck",
        "rating": 9.2,
        "price": 2
    },
    {
        "url": "https://irs2.4sqi.net/img/general/300x300/4162519_LhwdbKeHjmL9rwXFsMlpeVzd9AWqfw7dgvy_kmNRFqQ.jpg",
        "title": "Fat Angel Food & Libation",
        "width": 300,
        "height": 300,
        "latitude": 37.78317231,
        "longitude": -122.433099,
        "category": "Gastropub",
        "rating": 9.1,
        "price": 2
    },
    {
        "url": "https://irs0.4sqi.net/img/general/300x300/aYItHb5fahn4Ny_AoaWHk28o8Clcwmo6Qp9ctOP2mIw.jpg",
        "title": "Arizmendi Bakery",
        "width": 300,
        "height": 300,
        "latitude": 37.763461,
        "longitude": -122.466368,
        "category": "Bakery",
        "rating": 9.2,
        "price": 1
    },
    {
        "url": "https://irs1.4sqi.net/img/general/300x300/24204304_HOnZUll1vhXEgbDUmnRI2WkNc6XlpcaK4iCs9jZSGUo.jpg",
        "title": "Akiko’s Restaurant & Sushi Bar",
        "width": 300,
        "height": 300,
        "latitude": 37.790716856029064,
        "longitude": -122.40472430128631,
        "category": "Sushi",
        "rating": 9.2,
        "price": 4
    },
    {
        "url": "https://irs0.4sqi.net/img/general/300x300/18067_0TcyFDIEZhyYenyvHN8Clka6NDB8jfS2MUrHOZNACfA.jpg",
        "title": "Hakkasan",
        "width": 300,
        "height": 300,
        "latitude": 37.787740912290396,
        "longitude": -122.4035682406197,
        "category": "Chinese",
        "rating": 9.3,
        "price": 3
    },
    {
        "url": "https://irs2.4sqi.net/img/general/300x300/29469616__n-NmW5bWDkubJFrNEWn4RxkQexzym7Bk0iByo7lCHk.jpg",
        "title": "Boccalone Salumeria",
        "width": 300,
        "height": 300,
        "latitude": 37.79543054408178,
        "longitude": -122.39350610432753,
        "category": "Deli / Bodega",
        "rating": 9.3,
        "price": 2
    },
    {
        "url": "https://irs2.4sqi.net/img/general/300x300/1787124_MkTGsnIuY5I1jjGLDGDEjOYSUv3IvFO5J8Wpga8_28s.jpg",
        "title": "Domo Sushi",
        "width": 300,
        "height": 300,
        "latitude": 37.77603201110472,
        "longitude": -122.42610991001129,
        "category": "Sushi",
        "rating": 9.2,
        "price": 2
    },
    {
        "url": "https://irs3.4sqi.net/img/general/300x300/5632112_KQ7nJUYISavMTxFDBj61hWJ7H9K8Ia-CVws5VZQK-vo.jpg",
        "title": "Nopalito",
        "width": 300,
        "height": 300,
        "latitude": 37.76593141060717,
        "longitude": -122.46640205383301,
        "category": "Mexican",
        "rating": 9.2,
        "price": 2
    },
    {
        "url": "https://irs2.4sqi.net/img/general/300x300/1400226_-wFyOV26B1-dAqUHUFJoWN-Zou-ULG1gOLicUPCoIiw.jpg",
        "title": "Mikkeller Bar",
        "width": 300,
        "height": 300,
        "latitude": 37.783587477500795,
        "longitude": -122.40902423858641,
        "category": "Gastropub",
        "rating": 9.2,
        "price": 2
    },
    {
        "url": "https://irs0.4sqi.net/img/general/300x300/BK6-IY3RXzNa6kzj7MUvlU5aOQIpOkVOrhpyekxHjhg.jpg",
        "title": "Thorough Bread and Pastry",
        "width": 300,
        "height": 300,
        "latitude": 37.76673,
        "longitude": -122.429026,
        "category": "Bakery",
        "rating": 9.4,
        "price": 1
    },
    {
        "url": "https://irs1.4sqi.net/img/general/300x300/VjXqYwvTHIGsQKdbOoh7-y54KsIGZ-7tQroiNGtJv-M.jpg",
        "title": "Tadich Grill",
        "width": 300,
        "height": 300,
        "latitude": 37.79335077745009,
        "longitude": -122.39941120147705,
        "category": "Seafood",
        "rating": 9.2,
        "price": 3
    },
    {
        "url": "https://irs1.4sqi.net/img/general/300x300/116558496_d4TFIyFor-C3CfrfXmT_HgmaOQYrdru8C5OZ2sXLTt0.jpg",
        "title": "The Flying Falafel",
        "width": 300,
        "height": 300,
        "latitude": 37.78143219629832,
        "longitude": -122.41126216591852,
        "category": "Falafel",
        "rating": 9.2,
        "price": 2
    },
    {
        "url": "https://irs1.4sqi.net/img/general/300x300/42701427_MWmt7kaE3mVtPOOKnUZJk3MRLQ_X-v7rNzZMqjkeOzI.jpg",
        "title": "Anchor Oyster Bar",
        "width": 300,
        "height": 300,
        "latitude": 37.759787,
        "longitude": -122.43493974208832,
        "category": "Seafood",
        "rating": 9.5,
        "price": 3
    },
    {
        "url": "https://irs3.4sqi.net/img/general/300x300/-d49QzC5qR-tvcNKg5LFms46Q-87Vyqr_SVkSuamssQ.jpg",
        "title": "Devil's Teeth Baking Company",
        "width": 300,
        "height": 300,
        "latitude": 37.75296380498367,
        "longitude": -122.5049433458443,
        "category": "Bakery",
        "rating": 9.4,
        "price": 1
    },
    {
        "url": "https://irs0.4sqi.net/img/general/300x300/36586_ke1MiwH3nbrLL7rt11wWrzmDtaZQjMybj__Xos1Ij4M.jpg",
        "title": "Souvla",
        "width": 300,
        "height": 300,
        "latitude": 37.77652235934059,
        "longitude": -122.42494500911538,
        "category": "Souvlaki",
        "rating": 9.2,
        "price": 1
    },
    {
        "url": "https://irs1.4sqi.net/img/general/300x300/56594_Dw3KWHAEp_8tR-u6jvFJKGxckYkjiRTUxIECCuxRzik.jpg",
        "title": "Pizzeria Delfina",
        "width": 300,
        "height": 300,
        "latitude": 37.761594,
        "longitude": -122.42427,
        "category": "Pizza",
        "rating": 9.5,
        "price": 2
    },
    {
        "url": "https://irs1.4sqi.net/img/general/300x300/37615307_wZYudMlXN757FjOOzWQxxjPMKzVzGtrSDKi_61omuNc.jpg",
        "title": "Saigon Sandwich",
        "width": 300,
        "height": 300,
        "latitude": 37.782996298214755,
        "longitude": -122.417723,
        "category": "Sandwiches",
        "rating": 9.1,
        "price": 1
    },
    {
        "url": "https://irs0.4sqi.net/img/general/300x300/11734924_KvAPte3Emo4qpH_uYGh5MvOxvZ5Ow0nSsp0ZH5NERBw.jpg",
        "title": "Ozumo",
        "width": 300,
        "height": 300,
        "latitude": 37.792754827304414,
        "longitude": -122.39217842791084,
        "category": "Japanese",
        "rating": 9.3,
        "price": 4
    },
    {
        "url": "https://irs3.4sqi.net/img/general/300x300/X9Je3H8HKRlsKPlOhPvtrvi1sQVH7yPvuLP9hkxmESY.jpg",
        "title": "Ragazza",
        "width": 300,
        "height": 300,
        "latitude": 37.77249,
        "longitude": -122.437299,
        "category": "Pizza",
        "rating": 9.2,
        "price": 2
    },
    {
        "url": "https://irs0.4sqi.net/img/general/300x300/8892135_u4UZMEU0F-yMIr2otcqxZny_QSkk53aWhnT-Ok4Jlrc.jpg",
        "title": "Parada 22",
        "width": 300,
        "height": 300,
        "latitude": 37.7692666,
        "longitude": -122.452109,
        "category": "Caribbean",
        "rating": 9.1,
        "price": 2
    },
    {
        "url": "https://irs0.4sqi.net/img/general/300x300/13122781_IwOibylMftM-265dLBpQ14dvUZXZRZLPdqfrmkdUCmA.jpg",
        "title": "Garaje",
        "width": 300,
        "height": 300,
        "latitude": 37.781810106659364,
        "longitude": -122.3960286433832,
        "category": "Mexican",
        "rating": 9.3,
        "price": 2
    },
    {
        "url": "https://irs1.4sqi.net/img/general/300x300/1W4TV2FVG2AYQRBDWJ0CLBPGTBS1JS12VYDROM1OW2RWJEQB.jpg",
        "title": "Absinthe Brasserie & Bar",
        "width": 300,
        "height": 300,
        "latitude": 37.77732946934459,
        "longitude": -122.42300391197205,
        "category": "French",
        "rating": 9.2,
        "price": 3
    },
    {
        "url": "https://irs1.4sqi.net/img/general/300x300/0OEZRV2B5XSHDSJWNRXXEDZW0C20A3BOHQ41TGUYMVJFUAO5.jpg",
        "title": "La Mar",
        "width": 300,
        "height": 300,
        "latitude": 37.79729727723978,
        "longitude": -122.39536643028259,
        "category": "Peruvian",
        "rating": 9.2,
        "price": 3
    },
    {
        "url": "https://irs3.4sqi.net/img/general/300x300/AMGR12OP12J5TMETLF2OHLGNSJ0V4VRBFZTDCNTFXAJSB3MW.jpg",
        "title": "Tartine Bakery",
        "width": 300,
        "height": 300,
        "latitude": 37.76142131411304,
        "longitude": -122.42400974035263,
        "category": "Bakery",
        "rating": 9.4,
        "price": 2
    },
    {
        "url": "https://irs2.4sqi.net/img/general/300x300/13329_utDHQHhcc6UviXuE_WQ8OVtb3CF5TZCUspyVGgkh_W8.jpg",
        "title": "Frances",
        "width": 300,
        "height": 300,
        "latitude": 37.76275295560687,
        "longitude": -122.43226289749146,
        "category": "New American",
        "rating": 9.3,
        "price": 3
    },
    {
        "url": "https://irs1.4sqi.net/img/general/300x300/4109315_3PvWGGM_CBoNL4vsKtdHQavz0QvGw8vlUl4vmVz5rf0.jpg",
        "title": "Ike’s Place",
        "width": 300,
        "height": 300,
        "latitude": 37.764281769224375,
        "longitude": -122.43051946163177,
        "category": "Sandwiches",
        "rating": 9.3,
        "price": 2
    },
    {
        "url": "https://irs2.4sqi.net/img/general/300x300/Zu8lHD3i7aGG6H2YZLDoGDNxAsHVq_QVx6t4qtRPLS8.jpg",
        "title": "Otoro Sushi",
        "width": 300,
        "height": 300,
        "latitude": 37.7749857802835,
        "longitude": -122.4229596141637,
        "category": "Sushi",
        "rating": 9.2,
        "price": 3
    },
    {
        "url": "https://irs0.4sqi.net/img/general/300x300/7odrYU5mq6VP4NnLwM5GvUMo1QuQ7JbQuH4dSNQ7E9E.jpg",
        "title": "La Fusion",
        "width": 300,
        "height": 300,
        "latitude": 37.79186489257062,
        "longitude": -122.4037894972331,
        "category": "Latin American",
        "rating": 9.1,
        "price": 2
    },
    {
        "url": "https://irs3.4sqi.net/img/general/300x300/DW1zWDV68pN15ZP19vNKPRVHiVnIFvoWt1jLEdnTBQw.jpg",
        "title": "Réveille Coffee Co. Truck",
        "width": 300,
        "height": 300,
        "latitude": 37.79757945655418,
        "longitude": -122.4016875406115,
        "category": "Food Truck",
        "rating": 9.1,
        "price": 1
    },
    {
        "url": "https://irs2.4sqi.net/img/general/300x300/16145721_cbLTjqRQYuUllExukRzWDDM2H8-CUMvXzZzjlh-DkIY.jpg",
        "title": "The Lunchpad",
        "width": 300,
        "height": 300,
        "latitude": 37.776466,
        "longitude": -122.425875,
        "category": "Sandwiches",
        "rating": 9.1,
        "price": 2
    },
    {
        "url": "https://irs2.4sqi.net/img/general/300x300/989582_j_cEM2kzcJ7k0sjdlsY7lzpsq6d021iDPfyZh0rVBik.jpg",
        "title": "Bacon Bacon",
        "width": 300,
        "height": 300,
        "latitude": 37.76722639030827,
        "longitude": -122.44686481069431,
        "category": "Sandwiches",
        "rating": 9.2,
        "price": 1
    },
    {
        "url": "https://irs1.4sqi.net/img/general/300x300/m1VCC-HHX8cphu27e2k3LEGBpnLQgbuYFy8t5WMCpYU.jpg",
        "title": "Monk’s Kettle",
        "width": 300,
        "height": 300,
        "latitude": 37.76480271624263,
        "longitude": -122.42292643175631,
        "category": "Gastropub",
        "rating": 9.3,
        "price": 2
    },
    {
        "url": "https://irs1.4sqi.net/img/general/300x300/58971385_JhAsP6ITapLURb3UD0p04PKOGeIjn1rAaUg_zbEGa68.jpg",
        "title": "Sol Food Puerto Rican Cuisine",
        "width": 300,
        "height": 300,
        "latitude": 37.97184861316825,
        "longitude": -122.52413360470901,
        "category": "Latin American",
        "rating": 9.5,
        "price": 2
    },
    {
        "url": "https://irs1.4sqi.net/img/general/300x300/9121_c75O7w_U7VHkOED7N78SvKZ-QUoc_PlMbzEnfNIJnnA.jpg",
        "title": "The Little Chihuahua",
        "width": 300,
        "height": 300,
        "latitude": 37.77223538670447,
        "longitude": -122.43718283981498,
        "category": "Burritos",
        "rating": 9.1,
        "price": 2
    },
    {
        "url": "https://irs2.4sqi.net/img/general/300x300/300441_cRtlIMpGtbKOH_F5OoAknGBbIo4O61XtYC1sZZ5QR0o.jpg",
        "title": "Zero Zero",
        "width": 300,
        "height": 300,
        "latitude": 37.78167112478022,
        "longitude": -122.40177154541016,
        "category": "Italian",
        "rating": 9.2,
        "price": 2
    },
    {
        "url": "https://irs2.4sqi.net/img/general/300x300/2761156_uR-Slq-rQ5JB_LYq_-IeEOQBqQ_LlNXpVL7QcVSz5JE.jpg",
        "title": "Box Kitchen",
        "width": 300,
        "height": 300,
        "latitude": 37.78113267160082,
        "longitude": -122.40638762712479,
        "category": "American",
        "rating": 9.2,
        "price": 1
    },
    {
        "url": "https://irs0.4sqi.net/img/general/300x300/27316495_5t0ZDRH9nr6ptPQRKdO-ZktxzBDLmoMJlU2IrjAD_Nk.jpg",
        "title": "Restaurant Eiji",
        "width": 300,
        "height": 300,
        "latitude": 37.764107,
        "longitude": -122.4308641803497,
        "category": "Japanese",
        "rating": 9.2,
        "price": 3
    },
    {
        "url": "https://irs0.4sqi.net/img/general/300x300/961881_Te1XozVynOtKbxPiI3td1Pq05NOXLi2ZCLgwrrAb9yE.jpg",
        "title": "Jardinière",
        "width": 300,
        "height": 300,
        "latitude": 37.778127794889976,
        "longitude": -122.42173738856943,
        "category": "French",
        "rating": 9.1,
        "price": 4
    },
    {
        "url": "https://irs2.4sqi.net/img/general/300x300/21912031_TPfS78YfiHcKh92YCYC6HsnmlGoq9DnOQcw-Gx8O9UM.jpg",
        "title": "HRD Coffee Shop",
        "width": 300,
        "height": 300,
        "latitude": 37.7810902735461,
        "longitude": -122.3952966928482,
        "category": "Asian",
        "rating": 9.3,
        "price": 1
    },
    {
        "url": "https://irs3.4sqi.net/img/general/300x300/jZcKYJKlaNE1in7elhh6u6X6QxC3LEKzGNGnog76qiU.jpg",
        "title": "Boulevard",
        "width": 300,
        "height": 300,
        "latitude": 37.79341842725227,
        "longitude": -122.39306907935583,
        "category": "French",
        "rating": 9.2,
        "price": 4
    },
    {
        "url": "https://irs3.4sqi.net/img/general/300x300/11759381_S2jRhZnYEoNioxNNRIftqFVNvm97uKI12JuUKfqFk_Y.jpg",
        "title": "Darwin Cafe",
        "width": 300,
        "height": 300,
        "latitude": 37.780679,
        "longitude": -122.396086,
        "category": "Café",
        "rating": 9.3,
        "price": 2
    }
]