[
    {
        "url": "https://irs3.4sqi.net/img/general/300x300/338853_wL17vcsSqyXZkEU_5gT_Y7wAGEnbzOvRK0PfLuKWdHc.jpg",
        "title": "Yerba Buena Gardens",
        "width": 300,
        "height": 300,
        "latitude": 37.78480849048692,
        "longitude": -122.40259230136871,
        "date": 1367015829000
    },
    {
        "url": "https://irs2.4sqi.net/img/general/300x300/7437917_kji1dS6w3nacGxaaUnEZ2sdnnUFdF5nso3oCo0FDvSo.jpg",
        "title": "Samovar Tea Lounge",
        "width": 300,
        "height": 300,
        "latitude": 37.784282779035216,
        "longitude": -122.4022650718689,
        "date": 1371935789000
    },
    {
        "url": "https://irs2.4sqi.net/img/general/300x300/44021169_NrscG_RnNGqgT4GPpML58pdN4GTDxgj7DCUvn8LkQKw.jpg",
        "title": "Super Duper Burger",
        "width": 300,
        "height": 300,
        "latitude": 37.78483392804297,
        "longitude": -122.40353107452393,
        "date": 1367639397000
    },
    {
        "url": "https://irs0.4sqi.net/img/general/300x300/TvaOey3rVn1j81fWYHidQCwR4I37cp5MXRWsxM6Qjgg.jpg",
        "title": "Yerba Buena Center for the Arts",
        "width": 300,
        "height": 300,
        "latitude": 37.785359635574224,
        "longitude": -122.40169644355774,
        "date": 1340911175000
    },
    {
        "url": "https://irs3.4sqi.net/img/general/300x300/WcpownZlo15kW5cjIP-OtuvFpS6_SvBDEYlPZxgA8ao.jpg",
        "title": "Off the Grid: 5M @ Fifth and Minna",
        "width": 300,
        "height": 300,
        "latitude": 37.78448545557364,
        "longitude": -122.40399415918604,
        "date": 1331151775000
    },
    {
        "url": "https://irs2.4sqi.net/img/general/300x300/300441_cRtlIMpGtbKOH_F5OoAknGBbIo4O61XtYC1sZZ5QR0o.jpg",
        "title": "Zero Zero",
        "width": 300,
        "height": 300,
        "latitude": 37.78167112478022,
        "longitude": -122.40177154541016,
        "date": 1351029064000
    },
    {
        "url": "https://irs3.4sqi.net/img/general/300x300/8739589_2OlJgXUpz_XOpQb2w68WVm5U2KOYisp01x9c0yh_CAc.jpg",
        "title": "Tropisueño",
        "width": 300,
        "height": 300,
        "latitude": 37.78534267732514,
        "longitude": -122.40393340587616,
        "date": 1368213817000
    },
    {
        "url": "https://irs3.4sqi.net/img/general/300x300/39570127_WA9B6Fc9_N0TOZs1W5mtNaBqUw4TNK_dek6sihmwusU.jpg",
        "title": "Freshroll Vietnamese Rolls & Bowls",
        "width": 300,
        "height": 300,
        "latitude": 37.78385148580668,
        "longitude": -122.40351292639362,
        "date": 1350508222000
    },
    {
        "url": "https://irs1.4sqi.net/img/general/300x300/13933975_suTeIU_SN4N2ClcxqadbguKNwdB7asso1fBfeuySNqs.jpg",
        "title": "The Grove",
        "width": 300,
        "height": 300,
        "latitude": 37.78653398485857,
        "longitude": -122.40192174911499,
        "date": 1354150330000
    },
    {
        "url": "https://irs2.4sqi.net/img/general/300x300/52247186_Uyd8icBIGkHLinNX4APWp8nkEzrWa2k7eGp7pjVbL68.jpg",
        "title": "Fang",
        "width": 300,
        "height": 300,
        "latitude": 37.78545610621945,
        "longitude": -122.39992850252168,
        "date": 1374203827000
    },
    {
        "url": "https://irs2.4sqi.net/img/general/300x300/100677_lEGgVRmikyVWeh4_jJ0Ip8nkMfjmCTCtVQQHsU-miQk.jpg",
        "title": "Trou Normand",
        "width": 300,
        "height": 300,
        "latitude": 37.786638,
        "longitude": -122.399754,
        "date": 1394669143000
    },
    {
        "url": "https://irs3.4sqi.net/img/general/300x300/10873322_R20nXTG7h2E_LsEcTcLRhcmdvC_PuwCW-Q39gac-fRA.jpg",
        "title": "AMC Metreon 16",
        "width": 300,
        "height": 300,
        "latitude": 37.7844481241691,
        "longitude": -122.40364372730255,
        "date": 1356664433000
    },
    {
        "url": "https://irs1.4sqi.net/img/general/300x300/388871_z35Wy4yqLDYuAxygSQNs5VZAd1It3wPXy1Mb4HFQzqw.jpg",
        "title": "Amber India",
        "width": 300,
        "height": 300,
        "latitude": 37.785809027757246,
        "longitude": -122.4045181274414,
        "date": 1364866659000
    },
    {
        "url": "https://irs2.4sqi.net/img/general/300x300/32650362_R1p0bFr8uXXyNz7eUv0X5ET0KH0kCkwpOipJ0cG_2Xc.jpg",
        "title": "Cask",
        "width": 300,
        "height": 300,
        "latitude": 37.787075032560615,
        "longitude": -122.40311466310695,
        "date": 1355338803000
    },
    {
        "url": "https://irs0.4sqi.net/img/general/300x300/9911611_xPrbP1pu6560TNv9lJyD_O-yajQb2X41Sjb7l5s6dqY.jpg",
        "title": "Sharetea",
        "width": 300,
        "height": 300,
        "latitude": 37.78442746530533,
        "longitude": -122.40339676642412,
        "date": 1433123053000
    },
    {
        "url": "https://irs3.4sqi.net/img/general/300x300/100677_yy-YUFeFOUwevySk4maoWMaXc30FxsBemom27Wlx9TM.jpg",
        "title": "Mourad",
        "width": 300,
        "height": 300,
        "latitude": 37.786889747776414,
        "longitude": -122.40002807150083,
        "date": 1424063583000
    },
    {
        "url": "https://irs2.4sqi.net/img/general/300x300/20546_VWeeSHRLox76hBHH-rdMSzu2Qh97bTx2DSzhi47l_YA.jpg",
        "title": "La Capra Coffee",
        "width": 300,
        "height": 300,
        "latitude": 37.78305998356797,
        "longitude": -122.3980034837357,
        "date": 1437750535000
    },
    {
        "url": "https://irs3.4sqi.net/img/general/300x300/142074626_gxTddyDdFf2uKFem6cSBaT1Zf-7_I3siIte0IC5K9Vc.jpg",
        "title": "Delarosa",
        "width": 300,
        "height": 300,
        "latitude": 37.78575506651597,
        "longitude": -122.40429285429438,
        "date": 1444240650000
    },
    {
        "url": "https://irs2.4sqi.net/img/general/300x300/496959_BSOsiBvjIlTOAfPWH_D7MN06VM_cXyFZq8IrYTvtLeI.jpg",
        "title": "Ayola",
        "width": 300,
        "height": 300,
        "latitude": 37.78715971326076,
        "longitude": -122.40011104557811,
        "date": 1364931604000
    },
    {
        "url": "https://irs1.4sqi.net/img/general/300x300/956807_JTdx7ZSLU5Ukk7gEt6qyoZPr4iv5c_ZWhN30JTIB0qk.jpg",
        "title": "Beard Papa's",
        "width": 300,
        "height": 300,
        "latitude": 37.78515613632832,
        "longitude": -122.40374565124512,
        "date": 1359923329000
    },
    {
        "url": "https://irs1.4sqi.net/img/general/300x300/jRWV1fokadcshlRypIpisfweSXxV4hEFnm2v_jXX0nQ.jpg",
        "title": "Whole Foods Market",
        "width": 300,
        "height": 300,
        "latitude": 37.781329822235854,
        "longitude": -122.39991813898087,
        "date": 1339791985000
    },
    {
        "url": "https://irs0.4sqi.net/img/general/300x300/Fthn6TvspZyKxmH8H2xAOy1RMF5Qs2DRTkZDf9o_79k.jpg",
        "title": "Sanraku",
        "width": 300,
        "height": 300,
        "latitude": 37.78446844242723,
        "longitude": -122.40315338321487,
        "date": 1341881222000
    },
    {
        "url": "https://irs3.4sqi.net/img/general/300x300/aj_flMDvN2HAQCpM7RzXVtin9w-qrDn1U31wEVg0N-s.jpg",
        "title": "Super Duper Burger",
        "width": 300,
        "height": 300,
        "latitude": 37.787033183640254,
        "longitude": -122.40404337644577,
        "date": 1335900291000
    },
    {
        "url": "https://irs2.4sqi.net/img/general/300x300/5LIWEYBI2ZBHWPVRAOX04OQGNYK0I5DTYDPLWI4TCIBXHYYP.jpg",
        "title": "Burke Williams Day Spa",
        "width": 300,
        "height": 300,
        "latitude": 37.784401,
        "longitude": -122.406288,
        "date": 1318033894000
    },
    {
        "url": "https://irs0.4sqi.net/img/general/300x300/82651551_EXrXaoDISw4Hnb0OtyBu3ncYlC-ojrglP_0mub-DFbY.jpg",
        "title": "Special Xtra",
        "width": 300,
        "height": 300,
        "latitude": 37.78689834527448,
        "longitude": -122.40022167757937,
        "date": 1411700864000
    },
    {
        "url": "https://irs0.4sqi.net/img/general/300x300/18067_0TcyFDIEZhyYenyvHN8Clka6NDB8jfS2MUrHOZNACfA.jpg",
        "title": "Hakkasan",
        "width": 300,
        "height": 300,
        "latitude": 37.787740912290396,
        "longitude": -122.4035682406197,
        "date": 1366252670000
    },
    {
        "url": "https://irs1.4sqi.net/img/general/300x300/2605445_ZW_5S5H53Lipb9Qb8v0whgNsDW9Ud_mhv4jONDPpSLY.jpg",
        "title": "Mazarine Coffee",
        "width": 300,
        "height": 300,
        "latitude": 37.78737620645949,
        "longitude": -122.40381715427705,
        "date": 1423693242000
    },
    {
        "url": "https://irs1.4sqi.net/img/general/300x300/13774698_54-VZjIH3tR70vzI7u2g4cjDjO8ihVbJHavdJMAaoLQ.jpg",
        "title": "Elite Audio Coffee Bar",
        "width": 300,
        "height": 300,
        "latitude": 37.78059885531342,
        "longitude": -122.40305934864226,
        "date": 1349473594000
    },
    {
        "url": "https://irs1.4sqi.net/img/general/300x300/38415_4GDJwE-p7Pt8upJOzA4EWOkkRnzL8rjokUZ2jBb7968.jpg",
        "title": "Jamber Wine Pub",
        "width": 300,
        "height": 300,
        "latitude": 37.78102318967415,
        "longitude": -122.40255598567691,
        "date": 1353114959000
    },
    {
        "url": "https://irs2.4sqi.net/img/general/300x300/2559342_5Qf8-3ipjlZaZwoAR8ocvwfg1Sbxh5_fuFOIp6gUT1k.jpg",
        "title": "Children's Creativity Museum",
        "width": 300,
        "height": 300,
        "latitude": 37.783250423488354,
        "longitude": -122.40182787179947,
        "date": 1373837098000
    },
    {
        "url": "https://irs3.4sqi.net/img/general/300x300/1377205_PkspcO5vcTV8rvE0L7eCQEkKjRtfIFb_HPQg8NpvEJc.jpg",
        "title": "Chaat Corner",
        "width": 300,
        "height": 300,
        "latitude": 37.78366343587886,
        "longitude": -122.39874473077168,
        "date": 1353981001000
    },
    {
        "url": "https://irs0.4sqi.net/img/general/300x300/1088780_JP8-8bnPT-UDNjyqhr0jykswWcuHAvkGP5yX7jnfmDg.jpg",
        "title": "MKT Restaurant and Bar",
        "width": 300,
        "height": 300,
        "latitude": 37.78641103941816,
        "longitude": -122.40378856658936,
        "date": 1447177859000
    },
    {
        "url": "https://irs1.4sqi.net/img/general/300x300/3414310_ip80SP-pVJd-BA3gL6Nxb8csAfos5p-pFgOCNfz3y3k.jpg",
        "title": "Red Door Coffee",
        "width": 300,
        "height": 300,
        "latitude": 37.78746242830388,
        "longitude": -122.39933341741562,
        "date": 1380321269000
    },
    {
        "url": "https://irs3.4sqi.net/img/general/300x300/W_MtEAziJkX0-oij1VEIVwLt7zX0yKIKrI0-mVuQSPU.jpg",
        "title": "Bluestem Brasserie",
        "width": 300,
        "height": 300,
        "latitude": 37.78601252520537,
        "longitude": -122.40492582321167,
        "date": 1343874892000
    },
    {
        "url": "https://irs0.4sqi.net/img/general/300x300/339979_uTVeTOhVCHuttgM8nGPJWJbwYJ1kquW6qJhO79QnmSI.jpg",
        "title": "Steep Brew SoMa",
        "width": 300,
        "height": 300,
        "latitude": 37.78104975665553,
        "longitude": -122.39988424961183,
        "date": 1453774671000
    },
    {
        "url": "https://irs1.4sqi.net/img/general/300x300/1048443_KY3LjbutXtwY39NztBqgyfe5ancYWwHZJE8KjzCdQM0.jpg",
        "title": "Wise Sons Jewish Delicatessen",
        "width": 300,
        "height": 300,
        "latitude": 37.78582598589933,
        "longitude": -122.40318775177003,
        "date": 1374873877000
    },
    {
        "url": "https://irs1.4sqi.net/img/general/300x300/32113021_LLQrDtWw-2B3JFhaE8Zm9monJhu03VmsqGA65nhT_KI.jpg",
        "title": "The Garden Court",
        "width": 300,
        "height": 300,
        "latitude": 37.7880474499871,
        "longitude": -122.40180923398259,
        "date": 1350594948000
    },
    {
        "url": "https://irs1.4sqi.net/img/general/300x300/467051_fp517T6lU8Il2BtLlHK4mqgUIqOmcyQmw1g9gZS6Ajo.jpg",
        "title": "The Sentinel",
        "width": 300,
        "height": 300,
        "latitude": 37.78842656333861,
        "longitude": -122.40154925251888,
        "date": 1355518729000
    },
    {
        "url": "https://irs1.4sqi.net/img/general/300x300/vNfItQ8kR1bQ77VyRTAq4UnErDN6ShbDHAZspl5miV4.jpg",
        "title": "ThirstyBear Brewing Company",
        "width": 300,
        "height": 300,
        "latitude": 37.78555979757354,
        "longitude": -122.39967404803575,
        "date": 1333765405000
    },
    {
        "url": "https://irs1.4sqi.net/img/general/300x300/39631355_9bSN5Dz7fB8nAHHZCTkpiaVu8XkVVyRxOHtpzyLrMBI.jpg",
        "title": "Anchor & Hope",
        "width": 300,
        "height": 300,
        "latitude": 37.787895803434054,
        "longitude": -122.39874473077168,
        "date": 1356640483000
    },
    {
        "url": "https://irs2.4sqi.net/img/general/300x300/53138_4sApXwfM82fL1iqK1DrGISmJqpMLxKoCMboyFnMIDDk.jpg",
        "title": "Soma Eats",
        "width": 300,
        "height": 300,
        "latitude": 37.786933428878164,
        "longitude": -122.3984847417343,
        "date": 1423085077000
    },
    {
        "url": "https://irs2.4sqi.net/img/general/300x300/8040009_euvqP9993ofU2a7l4ugAXs84WfvtqkxkuXBvqz6obPo.jpg",
        "title": "Apple Store, San Francisco",
        "width": 300,
        "height": 300,
        "latitude": 37.7858382684861,
        "longitude": -122.406513703784,
        "date": 1355730022000
    },
    {
        "url": "https://irs3.4sqi.net/img/general/300x300/11hVagRyhLR9376YGFbEohxpYYuW8vRoISB73siEVkA.jpg",
        "title": "Sushirrito",
        "width": 300,
        "height": 300,
        "latitude": 37.78802740447002,
        "longitude": -122.40115651334446,
        "date": 1334868049000
    },
    {
        "url": "https://irs0.4sqi.net/img/general/300x300/BZl-7StuNlB9Wa87hXZE4Ie3pWQLqlOQumj8IGCAhH0.jpg",
        "title": "K&L Wine Merchants",
        "width": 300,
        "height": 300,
        "latitude": 37.77963176565572,
        "longitude": -122.40074157714844,
        "date": 1339196410000
    },
    {
        "url": "https://irs3.4sqi.net/img/general/300x300/655695_TDSgmL3EigYJRmADjj28LozwRfJRVG8M81h6aFxW89s.jpg",
        "title": "The Cavalier",
        "width": 300,
        "height": 300,
        "latitude": 37.783265262376574,
        "longitude": -122.40679264068604,
        "date": 1375922250000
    },
    {
        "url": "https://irs1.4sqi.net/img/general/300x300/23438729_Dm8zWwxjJ10xg0lB9sjQeeyiFBrcIvXxEvlI380YYoQ.jpg",
        "title": "Asha Tea House",
        "width": 300,
        "height": 300,
        "latitude": 37.78808118828626,
        "longitude": -122.40342442357135,
        "date": 1447691682000
    },
    {
        "url": "https://irs1.4sqi.net/img/general/300x300/10725108_vK3Hgu5pQ84Z8bG8-Fute_b1cJRI1xZZmfnspqzS6gc.jpg",
        "title": "Osha Thai Restaurant",
        "width": 300,
        "height": 300,
        "latitude": 37.78738130596573,
        "longitude": -122.39894387087647,
        "date": 1372479175000
    },
    {
        "url": "https://irs1.4sqi.net/img/general/300x300/G4QO2VROF5JP2JMTIK0UUKVZ1L1BRSANV1INHTDMB1JM501V.jpg",
        "title": "Osha Thai",
        "width": 300,
        "height": 300,
        "latitude": 37.78358486338668,
        "longitude": -122.39875579412075,
        "date": 1298870921000
    },
    {
        "url": "https://irs0.4sqi.net/img/general/300x300/16156_sy2Bfxv6AAj8gjsa34XmbRGc37dig8pEEFmXR3pbmpE.jpg",
        "title": "Tin Vietnamese",
        "width": 300,
        "height": 300,
        "latitude": 37.780878,
        "longitude": -122.40566371,
        "date": 1355605926000
    },
    {
        "url": "https://irs3.4sqi.net/img/general/300x300/14955368_c-WEUUXAl8raJK_gz_HyfuhX1VabpxOtGlpaSSdrTpQ.jpg",
        "title": "Oola Restaurant & Bar",
        "width": 300,
        "height": 300,
        "latitude": 37.78096134415301,
        "longitude": -122.40261130040633,
        "date": 1371849312000
    },
    {
        "url": "https://irs1.4sqi.net/img/general/300x300/8993875_GLOaNjuKBBzdQJOjjMnJjrU6nAqayFFnrD3lVRiTOCk.jpg",
        "title": "Cafe Du Soleil",
        "width": 300,
        "height": 300,
        "latitude": 37.78314053496702,
        "longitude": -122.39821368864953,
        "date": 1377291094000
    },
    {
        "url": "https://irs1.4sqi.net/img/general/300x300/15301988_1vCXYzLscXJ-NkjLjrRIHlYSi69HIRkyrd7CVWdoXrI.jpg",
        "title": "Loving Hut",
        "width": 300,
        "height": 300,
        "latitude": 37.78436757145777,
        "longitude": -122.40621328353882,
        "date": 1354839735000
    },
    {
        "url": "https://irs3.4sqi.net/img/general/300x300/10613850_QRjZ-8bykuVubRJmmoR7NJeZgXEsoFXipqiKynNG32k.jpg",
        "title": "Disney Store",
        "width": 300,
        "height": 300,
        "latitude": 37.786147658776606,
        "longitude": -122.40639102402282,
        "date": 1377196058000
    },
    {
        "url": "https://irs1.4sqi.net/img/general/300x300/747865_1tjpJqnnQDJ8rWhcNFQkh7GJdp1rfeHgBFz5BxaG2rg.jpg",
        "title": "Buckhorn Grill",
        "width": 300,
        "height": 300,
        "latitude": 37.7845136381849,
        "longitude": -122.40622328925453,
        "date": 1374285651000
    },
    {
        "url": "https://irs2.4sqi.net/img/general/300x300/9X5iZxBPjObDjaVXG253_cR14wuvqCGYvnLzGHgNpx4.jpg",
        "title": "Buckhorn Grill",
        "width": 300,
        "height": 300,
        "latitude": 37.784331894913095,
        "longitude": -122.40316997754249,
        "date": 1339792546000
    },
    {
        "url": "https://irs3.4sqi.net/img/general/300x300/otb3iBwbyLsfbChsgsJEvJujOPGi0UWgPLFX4EzqdQA.jpg",
        "title": "The Container Store",
        "width": 300,
        "height": 300,
        "latitude": 37.78520190842714,
        "longitude": -122.4051612778455,
        "date": 1336770894000
    },
    {
        "url": "https://irs2.4sqi.net/img/general/300x300/2761156_uR-Slq-rQ5JB_LYq_-IeEOQBqQ_LlNXpVL7QcVSz5JE.jpg",
        "title": "Box Kitchen",
        "width": 300,
        "height": 300,
        "latitude": 37.78113267160082,
        "longitude": -122.40638762712479,
        "date": 1364584228000
    },
    {
        "url": "https://irs0.4sqi.net/img/general/300x300/13122781_IwOibylMftM-265dLBpQ14dvUZXZRZLPdqfrmkdUCmA.jpg",
        "title": "Garaje",
        "width": 300,
        "height": 300,
        "latitude": 37.781810106659364,
        "longitude": -122.3960286433832,
        "date": 1378240601000
    },
    {
        "url": "https://irs3.4sqi.net/img/general/300x300/s24OCuJqzCcD3XGVaR4b4xriCqkTd9XRsNZap9JdlWY.jpg",
        "title": "CB2",
        "width": 300,
        "height": 300,
        "latitude": 37.78583315,
        "longitude": -122.406633,
        "date": 1331141366000
    },
    {
        "url": "https://irs3.4sqi.net/img/general/300x300/wAI612du908WJBgzAI8SEJmbR0lovCenvTm7IU1QQm4.jpg",
        "title": "Barneys New York",
        "width": 300,
        "height": 300,
        "latitude": 37.78651586307495,
        "longitude": -122.40631178972106,
        "date": 1345578998000
    },
    {
        "url": "https://irs3.4sqi.net/img/general/300x300/94521622_w89u7ToH7FoykeKGvMhxisaihoHvnrAbRLP6lGEHk_I.jpg",
        "title": "Bowl'd Acai",
        "width": 300,
        "height": 300,
        "latitude": 37.78272064002961,
        "longitude": -122.40778309906236,
        "date": 1427996340000
    },
    {
        "url": "https://irs2.4sqi.net/img/general/300x300/36204287_3TTSlqG-DqE9vzk63TqIHA5ZDsuWb1mbatQbNHROD5w.jpg",
        "title": "M.Y. China",
        "width": 300,
        "height": 300,
        "latitude": 37.784466838642565,
        "longitude": -122.40631732099772,
        "date": 1359247282000
    },
    {
        "url": "https://irs0.4sqi.net/img/general/300x300/47922673_oOfMdV2Vpnzrmz3DnR1OgmrHniO-8oE1r7U61uU5at0.jpg",
        "title": "Westfield San Francisco Centre",
        "width": 300,
        "height": 300,
        "latitude": 37.78448965,
        "longitude": -122.4063157,
        "date": 1370804534000
    },
    {
        "url": "https://irs0.4sqi.net/img/general/300x300/364676_tgNSuxJ7uTY1cfDpVWEGREiJxFdEruUK70nLjXL3OUs.jpg",
        "title": "Blue Bottle Coffee",
        "width": 300,
        "height": 300,
        "latitude": 37.78246395814844,
        "longitude": -122.40782260894775,
        "date": 1359919783000
    },
    {
        "url": "https://irs3.4sqi.net/img/general/300x300/IZNRYN54FRUEACSLKGTGMF0ZHTKIHRARLSOY5PFXWRLCFEDR.jpg",
        "title": "Working Girls’ Cafe",
        "width": 300,
        "height": 300,
        "latitude": 37.78712419012147,
        "longitude": -122.40010551397499,
        "date": 1322685844000
    },
    {
        "url": "https://irs2.4sqi.net/img/general/300x300/32706454_I25DWSQeBGIZ33rKSkvtiMwh_yhMKQaBNz-v4UzBDHg.jpg",
        "title": "Tempest",
        "width": 300,
        "height": 300,
        "latitude": 37.78134828678804,
        "longitude": -122.40622882053584,
        "date": 1386105903000
    },
    {
        "url": "https://irs0.4sqi.net/img/general/300x300/udGs83RHj0l1VC1fKl17ipAubutkJKXRu4hPa6aBI0U.jpg",
        "title": "Anthropologie",
        "width": 300,
        "height": 300,
        "latitude": 37.784856944122865,
        "longitude": -122.4071082905674,
        "date": 1346098423000
    },
    {
        "url": "https://irs0.4sqi.net/img/general/300x300/2923516_QxQPuy7B5CypLQvFB4E85weuwIo1nKzQRpBsbt_q7gk.jpg",
        "title": "Bloomingdale's",
        "width": 300,
        "height": 300,
        "latitude": 37.784197986515366,
        "longitude": -122.40589141845703,
        "date": 1364516166000
    },
    {
        "url": "https://irs3.4sqi.net/img/general/300x300/684943_UwA9aOoddw83hq828VMrHpRw8qViZqze9VBy07GpgIw.jpg",
        "title": "Java Trading Company",
        "width": 300,
        "height": 300,
        "latitude": 37.78257283536324,
        "longitude": -122.40622882053584,
        "date": 1376066448000
    },
    {
        "url": "https://irs2.4sqi.net/img/general/300x300/2412618_4gLp6CrkLSW-2knkvaK5ZiKNwPYoSvCewqUFjYiSmOY.jpg",
        "title": "Nordstrom Cafe Bistro",
        "width": 300,
        "height": 300,
        "latitude": 37.78410907783263,
        "longitude": -122.40745675779009,
        "date": 1365287314000
    },
    {
        "url": "https://irs0.4sqi.net/img/general/300x300/5005143_uUASNX6dE63MC7I9gcCDljhBwsfcKSmDBV_gLjPRB_w.jpg",
        "title": "Mint Plaza",
        "width": 300,
        "height": 300,
        "latitude": 37.78274855751034,
        "longitude": -122.40771119344531,
        "date": 1370975645000
    },
    {
        "url": "https://irs3.4sqi.net/img/general/300x300/21512521_Db-I3ngiwLdHSb31xkhkmKfKy15AstiJ9V5JZFS8ZVU.jpg",
        "title": "UNIQLO",
        "width": 300,
        "height": 300,
        "latitude": 37.78584,
        "longitude": -122.4079,
        "date": 1356385431000
    },
    {
        "url": "https://irs1.4sqi.net/img/general/300x300/6588451_UqIxsLGE6PeWQbTOq-ZXvQGZ1CNvbUJrjaWMuDfWdsc.jpg",
        "title": "Nespresso Boutique",
        "width": 300,
        "height": 300,
        "latitude": 37.787657,
        "longitude": -122.405021,
        "date": 1361139334000
    },
    {
        "url": "https://irs0.4sqi.net/img/general/300x300/10831511_CeMIt6guQqHcuCJOS0O_iov53UrfZIPpkUPWJFgotJ8.jpg",
        "title": "The Rotunda at Neiman Marcus",
        "width": 300,
        "height": 300,
        "latitude": 37.787386118323695,
        "longitude": -122.4063205718994,
        "date": 1370118380000
    },
    {
        "url": "https://irs1.4sqi.net/img/general/300x300/9438347_8g3Ewb5XyzffWeKSCzspam5mThuXLW0y3g4HG1QW6eA.jpg",
        "title": "dragoneats",
        "width": 300,
        "height": 300,
        "latitude": 37.78647928364031,
        "longitude": -122.39551971493341,
        "date": 1450899917000
    },
    {
        "url": "https://irs3.4sqi.net/img/general/300x300/11759381_S2jRhZnYEoNioxNNRIftqFVNvm97uKI12JuUKfqFk_Y.jpg",
        "title": "Darwin Cafe",
        "width": 300,
        "height": 300,
        "latitude": 37.780679,
        "longitude": -122.396086,
        "date": 1358279882000
    },
    {
        "url": "https://irs1.4sqi.net/img/general/300x300/3389132_wJGEJv6lY2W5ireiluaWJk3GL1iHFnJ9FKp9hyh39NM.jpg",
        "title": "Split Bread",
        "width": 300,
        "height": 300,
        "latitude": 37.78418950725803,
        "longitude": -122.40354180335997,
        "date": 1357335004000
    },
    {
        "url": "https://irs3.4sqi.net/img/general/300x300/40709254_ypybhtsUbx9kwg_nzFjcRhT3OC8sPm-9vkGy9qIbSyE.jpg",
        "title": "Nordstrom San Francisco Centre",
        "width": 300,
        "height": 300,
        "latitude": 37.783946,
        "longitude": -122.407157,
        "date": 1352251355000
    },
    {
        "url": "https://irs3.4sqi.net/img/general/300x300/53598422_pjiJgN51aryVQUnDMwQOXwmQLE4QKSGzYvdhn6puIIU.jpg",
        "title": "Picnic on Third",
        "width": 300,
        "height": 300,
        "latitude": 37.78152070705427,
        "longitude": -122.39579630678755,
        "date": 1454014451000
    },
    {
        "url": "https://irs0.4sqi.net/img/general/300x300/z94HOoT1kZer9S8v4nduDVoAN4PYsejyJm4yk8dZpZE.jpg",
        "title": "Mel's Drive-In",
        "width": 300,
        "height": 300,
        "latitude": 37.78441844686463,
        "longitude": -122.40456640720367,
        "date": 1336448599000
    },
    {
        "url": "https://irs2.4sqi.net/img/general/300x300/3004096_2peBScwmAolATHRJlGTCAhEFDhzqbGT00ruO8PoFDxc.jpg",
        "title": "Ghirardelli Ice Cream & Chocolate Shop",
        "width": 300,
        "height": 300,
        "latitude": 37.78878321579423,
        "longitude": -122.4021411242791,
        "date": 1360880100000
    },
    {
        "url": "https://irs3.4sqi.net/img/general/300x300/2084_Yqa2bA4xWlidCQER4OsNUFX83dsznEC5tegYf7tzlkc.jpg",
        "title": "Cafe Madeleine",
        "width": 300,
        "height": 300,
        "latitude": 37.786652148609235,
        "longitude": -122.40541018773195,
        "date": 1354903713000
    },
    {
        "url": "https://irs1.4sqi.net/img/general/300x300/88999540_RUKHS336T7OnXmyNSio-n2qUHgBg9i5y4MGO1hjXN9o.jpg",
        "title": "Mathilde French Bistro",
        "width": 300,
        "height": 300,
        "latitude": 37.78019984504067,
        "longitude": -122.40296531398559,
        "date": 1453672662000
    },
    {
        "url": "https://irs2.4sqi.net/img/general/300x300/21912031_TPfS78YfiHcKh92YCYC6HsnmlGoq9DnOQcw-Gx8O9UM.jpg",
        "title": "HRD Coffee Shop",
        "width": 300,
        "height": 300,
        "latitude": 37.7810902735461,
        "longitude": -122.3952966928482,
        "date": 1366167125000
    },
    {
        "url": "https://irs1.4sqi.net/img/general/300x300/pHwBYHefN3YQulkJEuCQOdSBDHNb5fesGKvyMB6E-dY.jpg",
        "title": "Mixt Greens",
        "width": 300,
        "height": 300,
        "latitude": 37.78881250057032,
        "longitude": -122.3989106808852,
        "date": 1336679922000
    },
    {
        "url": "https://irs3.4sqi.net/img/general/300x300/127402_RHS5qVa7yzvijlJnXJnG7g-_S6CYfeu1OGIDi214a38.jpg",
        "title": "Socola Chocolatier + Barista",
        "width": 300,
        "height": 300,
        "latitude": 37.78680658789044,
        "longitude": -122.39517674002478,
        "date": 1392411315000
    },
    {
        "url": "https://irs1.4sqi.net/img/general/300x300/2258263_FrOkNUQbsulBFswTIofhydDYlgeWEJOWn-ulg5WC_p8.jpg",
        "title": "Luce",
        "width": 300,
        "height": 300,
        "latitude": 37.78167,
        "longitude": -122.404878,
        "date": 1367692729000
    },
    {
        "url": "https://irs2.4sqi.net/img/general/300x300/1400226_-wFyOV26B1-dAqUHUFJoWN-Zou-ULG1gOLicUPCoIiw.jpg",
        "title": "Mikkeller Bar",
        "width": 300,
        "height": 300,
        "latitude": 37.783587477500795,
        "longitude": -122.40902423858641,
        "date": 1374357438000
    },
    {
        "url": "https://irs1.4sqi.net/img/general/300x300/0TY0SIY5S4LOC1N44IYPSCH1GFLAPEIOKNFJPFBIMOZ1W1YM.jpg",
        "title": "Special Xtra",
        "width": 300,
        "height": 300,
        "latitude": 37.788636462537326,
        "longitude": -122.39826900566233,
        "date": 1293039560000
    },
    {
        "url": "https://irs2.4sqi.net/img/general/300x300/3126950_S4ZABC1frhoNf6wUAoMoffBvT-e6EXh0bLLpK4L0KCM.jpg",
        "title": "The Cheesecake Factory",
        "width": 300,
        "height": 300,
        "latitude": 37.787352202751634,
        "longitude": -122.40740954875946,
        "date": 1365035847000
    },
    {
        "url": "https://irs0.4sqi.net/img/general/300x300/7PnBhf42dHGJbAFvbCDMYwgba0QhjaNbJet81MZZdRM.jpg",
        "title": "Peet's Coffee & Tea",
        "width": 300,
        "height": 300,
        "latitude": 37.78654782195587,
        "longitude": -122.40231813200897,
        "date": 1344360903000
    },
    {
        "url": "https://irs3.4sqi.net/img/general/300x300/ULJFIGOM34VHKERWEPBG3KYSO3SPA4AMTYWTVFW4ILUAALNL.jpg",
        "title": "54 Mint",
        "width": 300,
        "height": 300,
        "latitude": 37.782748,
        "longitude": -122.407611,
        "date": 1302316006000
    },
    {
        "url": "https://irs0.4sqi.net/img/general/300x300/196737_oWVk1qCwiK3uhx8FEbC5BviclUNEevMx71X-ew8XoW8.jpg",
        "title": "Bun Mee",
        "width": 300,
        "height": 300,
        "latitude": 37.78844231485254,
        "longitude": -122.40264448922998,
        "date": 1390597712000
    },
    {
        "url": "https://irs2.4sqi.net/img/general/300x300/_tlU7433S8H1F159p7DbIClYmnNge1ebtyG52t8V838.jpg",
        "title": "Sephora",
        "width": 300,
        "height": 300,
        "latitude": 37.78502739965916,
        "longitude": -122.40778774023056,
        "date": 1340406125000
    },
    {
        "url": "https://irs1.4sqi.net/img/general/300x300/15847088_v9Y4YX3NYICFWiabxSS1vMD7r-Y521XlpTOwmNKDE3k.jpg",
        "title": "Chipotle Mexican Grill",
        "width": 300,
        "height": 300,
        "latitude": 37.78423190353498,
        "longitude": -122.40368127822876,
        "date": 1371594798000
    },
    {
        "url": "https://irs1.4sqi.net/img/general/300x300/FDOa8kZsuwEEratfgB9B0MkQPSO_219uyKQqNShIxcw.jpg",
        "title": "LUSH Fresh Handmade Cosmetics",
        "width": 300,
        "height": 300,
        "latitude": 37.78695777097452,
        "longitude": -122.40816475112939,
        "date": 1339973203000
    },
    {
        "url": "https://irs0.4sqi.net/img/general/300x300/MV3OL3C3OCHJ5UVBKEXJIANMFIYDZ5OAZNRD3ZHV125V51Y5.jpg",
        "title": "Split Pea Seduction",
        "width": 300,
        "height": 300,
        "latitude": 37.780522,
        "longitude": -122.408047,
        "date": 1305662406000
    },
    {
        "url": "https://irs2.4sqi.net/img/general/300x300/38160086_QCYzS-a7d-kmqc4uzjVzBvvjZBY7wi4bFy1UQro-cOs.jpg",
        "title": "Epicenter Cafe",
        "width": 300,
        "height": 300,
        "latitude": 37.78148033473228,
        "longitude": -122.3989337682724,
        "date": 1374862108000
    },
    {
        "url": "https://irs3.4sqi.net/img/general/300x300/39497_gyYHO2W6DG1YWuwL624DYAGaavRwTUq8M2l_MihJqXQ.jpg",
        "title": "Per Diem",
        "width": 300,
        "height": 300,
        "latitude": 37.7899893335032,
        "longitude": -122.40122289189945,
        "date": 1350356067000
    },
    {
        "url": "https://irs0.4sqi.net/img/general/300x300/2964510_FV6jmVwPWTkZyOGSZtTybpBHG8hE_NjILWXcqrkueIA.jpg",
        "title": "The Hotel Utah Saloon",
        "width": 300,
        "height": 300,
        "latitude": 37.77947007181946,
        "longitude": -122.39816943501836,
        "date": 1364011407000
    }
]
